id,name,city,tennis_courts,padel_courts,beach_courts,latitude,longitude
62130211,A.I.L ROUSSET,ROUSSET,8,0,0,43.47646,5.62553
62130213,A.S. AVIATION CIVILE AIX,AIX-EN-PROVENCE,3,0,0,43.52819,5.43156
62130102,A.S. CARNOUX TENNIS,CARNOUX-EN-PROVENCE,4,0,0,43.2583,5.565487
62130417,A.S. REALTOR,MARSEILLE,2,0,0,43.291252,5.434388
62130134,A.S. ROGNAC TENNIS,ROGNAC,6,1,0,43.477528,5.242273
62130025,A.S.C.E.E 13 EQUIPEMENT,SEPTEMES-LES-VALLONS,2,0,0,43.3901,5.349956
62130336,AILES SPORTIVES AIRBUS HELICOPTERS,MARIGNANE,6,0,0,43.410652,5.242855
62130600,AIX AUC TENNIS-PADEL,AIX EN PROVENCE,8,3,0,43.510895,5.465583
62130504,ALLAUDIEN TENNIS CLUB,ALLAUCH,6,0,0,43.341743,5.477817
62130584,AS AIGUIER TENNIS,MARSEILLE,4,0,0,43.250645,5.410542
62130100,AS DES SALARIES DE L'ENERGIE,ALLAUCH,4,0,0,43.336147,5.482574
62130558,AS TENNIS CLUB ALLAUCH FONTVIEILLE,ALLAUCH,4,0,0,43.323086,5.4907
62130564,AS TENNIS LA CIOTAT/CEYRESTE,CEYRESTE,6,3,0,43.2215,5.634811
62130147,ASCE 13 CEREMA,AIX EN PROVENCE Cedex 3,4,0,0,43.48923,5.377833
62130609,ASSOCIATION TCP PADEL,CASSIS,4,3,0,43.21143,5.516852
62130520,BERRE TENNIS CLUB,BERRE L'ETANG,6,0,0,43.485607,5.161836
62130210,C.S. BOUILLADISSE,LA BOUILLADISSE,4,0,0,43.393627,5.597005
62130195,C.S.A.M. AUDEOUD,MARSEILLE,4,0,0,43.274513,5.401662
62130005,CERCLE SPORTIF MARSEILLE TENNIS,MARSEILLE,14,0,0,43.266,5.39103
62L00130,COMITE BOUCHES DU RHONE TENNIS,CABRIES,5,0,0,43.426937,5.367676
62130608,CSU TENNIS AIX EN PROVENCE,AIX EN PROVENCE,5,3,2,43.51734,5.45239
62130595,FETE LE MUR AIX EN PROVENCE,AIX EN PROVENCE,3,0,0,43.526646,5.422151
62130244,GALLIA TENNIS CLUB,MARSEILLE,5,0,0,43.300755,5.450183
62130594,IBS SPORTS,LUYNES,4,0,0,43.486317,5.418159
62130105,LA CIOTAT TENNIS CLUB,LA CIOTAT,8,5,0,43.1958,5.631207
62138019,LB13 PADEL TENNIS CLUB,ALLAUCH,3,3,0,43.333946,5.480464
62130592,MAGNAC ASPTT MARSEILLE,MARSEILLE,12,0,0,43.265797,5.391035
62130119,OLYMPIQUE CABRIES CALAS,CABRIES,14,0,0,43.446938,5.352782
62130606,OMJS TC MEYREUIL,MEYREUIL,6,0,0,43.471565,5.497285
62130340,S.C. MONTREDON BONNEVEINE,MARSEILLE,3,0,0,43.25374,5.384074
62130547,SCO STE MARGUERITE TENNIS,MARSEILLE 09,4,0,0,43.26393,5.420702
62130008,SMUC,MARSEILLE,10,0,0,43.259037,5.385557
62130538,SPORTING CLUB DES CREISSAUDS,AUBAGNE,6,0,0,43.29268,5.567643
62130480,ST SAVOURNIN TENNIS CLUB,ST-SAVOURNIN,4,0,0,43.413532,5.525762
62130041,T.C CARRY-LE-ROUET,CARRY-LE-ROUET,6,0,0,43.33881,5.156755
62130369,T.C CHATEAU-GOMBERT,MARSEILLE 13,6,0,0,43.344334,5.428262
62130272,T.C CHATEAUNEUF LES MARTIGUES,CHATEAUNEUF-LES-MARTIGUES,9,2,0,43.396038,5.14075
62130138,T.C CIMENT LAFARGE,BOUC-BEL-AIR,2,0,0,43.451153,5.413875
62130351,T.C GREASQUE,GREASQUE,2,0,0,43.431686,5.547981
62130318,T.C QUEIREL ST-LOUP,MARSEILLE,8,0,1,43.28035,5.435051
62130381,T.C ROQUEFORT-LA-BEDOULE,ROQUEFORT-LA-BEDOULE,5,0,0,43.248363,5.585647
62130501,T.C RUISSATEL,MARSEILLE,2,0,0,43.303562,5.512767
62130226,T.C SAINT-JULIEN,MARSEILLE,5,0,0,43.31301,5.457581
62130137,T.C SAUSSET-LES-PINS,SAUSSET LES PINS,5,0,1,43.331524,5.099421
62130239,T.C VENTABREN,VENTABREN,9,0,0,43.53506,5.296039
62830313,TC CADIERE,La Cadière d'Azur,2,0,0,43.196217,5.755173
62830050,TC SAINT CYRIEN,SAINT CYR SUR MER,16,0,0,43.184322,5.683193
62130601,TENNIS ACADEMY DE LUMINY,MARSEILLE,12,4,0,43.238117,5.43006
62130193,TENNIS C.B PLAN DE CUQUES,PLAN DE CUQUES,8,0,0,43.339745,5.458509
62130038,TENNIS CLUB AIX AYGOSI,AIX-EN-PROVENCE,7,0,0,43.51929,5.463495
62130476,TENNIS CLUB ARGELAS-FUVEAU,FUVEAU,3,0,0,43.45332,5.544457
62130357,TENNIS CLUB ASPTT AIX EN PROVENCE,LES MILLES,4,0,0,43.505848,5.407743
62130031,TENNIS CLUB AUBAGNAIS,AUBAGNE,13,1,0,43.314407,5.594872
62130346,TENNIS CLUB AURIOL,AURIOL,10,0,0,43.369884,5.646721
62130561,TENNIS CLUB BELCODENE,BELCODENE,4,1,0,43.421734,5.598495
62130016,TENNIS CLUB BOIS-LUZY,MARSEILLE,4,0,0,43.313087,5.427709
62130177,TENNIS CLUB BOUC-BEL-AIR,BOUC-BEL-AIR,7,0,0,43.44667,5.421287
62130297,TENNIS CLUB CADOLIVE,CADOLIVE,4,0,0,43.402454,5.550859
62130251,TENNIS CLUB CAMPUS ETOILE,MARSEILLE,7,0,0,43.336983,5.41085
62130503,TENNIS CLUB CUGES LES PINS,CUGES-LES-PINS,2,0,0,43.273617,5.694521
62130274,TENNIS CLUB DE GEMENOS,GEMENOS,11,2,0,43.28804,5.617297
62130409,TENNIS CLUB DE LA VOILERIE,LES PENNES-MIRABEAU,2,0,0,43.41027,5.308922
62130140,TENNIS CLUB DE VITROLLES,VITROLLES,10,0,0,43.43012,5.27824
62130522,TENNIS CLUB DU JAS DE BOUFFAN,AIX EN PROVENCE,7,0,0,43.527317,5.419769
62130612,TENNIS CLUB DU ROVE ,LE ROVE,2,0,0,43.37296,5.26155
62130327,TENNIS CLUB ENSUES-LA-REDONNE,ENSUES-LA-REDONNE,4,0,0,43.35561,5.195955
62130237,TENNIS CLUB FETE LE MUR MARSEILLE,MARSEILLE,2,0,0,43.344604,5.354051
62130234,TENNIS CLUB FUVEAU,FUVEAU,8,1,0,43.452583,5.553219
62130163,TENNIS CLUB GARDANNAIS,GARDANNE,7,0,0,43.462864,5.480601
62130201,TENNIS CLUB GIGNACAIS,GIGNAC-LA-NERTHE,6,0,0,43.393112,5.237164
62130301,TENNIS CLUB LA DORGALE,ROQUEVAIRE,5,0,0,43.349537,5.603996
62130007,TENNIS CLUB LA FOURRAGERE ASPTT,MARSEILLE,9,2,1,43.307163,5.425376
62130009,TENNIS CLUB LA ROSE,MARSEILLE,5,0,0,43.3274,5.422257
62130036,TENNIS CLUB MARIGNANAIS,MARIGNANE,8,0,0,43.419605,5.20562
62130002,TENNIS CLUB MARSEILLE,MARSEILLE,9,0,0,43.268215,5.380573
62130269,TENNIS CLUB MIMET,MIMET,4,0,0,43.42658,5.487111
62130219,TENNIS CLUB MUN.THOLONET,LE THOLONET,5,0,0,43.516865,5.502212
62130571,TENNIS CLUB NEGRELIEN,CHATEAUNEUF LE ROUGE,4,0,0,43.487732,5.592618
62130136,TENNIS CLUB PENNES-MIRABEAU,LES PENNES MIRABEAU,9,0,0,43.38545,5.343804
62130107,TENNIS CLUB PENNOIS,LA PENNE-SUR-HUVEAUNE,4,0,0,43.282143,5.512198
62130391,TENNIS CLUB PEYPIN,PEYPIN,4,0,4,43.38408,5.580274
62130567,TENNIS CLUB ROUVIERE,MARSEILLE,5,0,0,43.25252,5.422254
62130023,TENNIS CLUB ROY D'ESPAGNE,MARSEILLE,5,0,0,43.237362,5.389725
62830451,TENNIS CLUB SAINT-ZACHARIE,ST ZACHARIE,5,0,0,43.38238,5.702949
62130387,TENNIS CLUB SEPTEMOIS,SEPTEMES LES VALLONS,7,0,0,43.406445,5.371789
62138013,TENNIS DU PHARO MAIRIE DU 1/7,MARSEILLE 07,2,0,0,43.29169,5.35993
62130287,TENNIS LA DESTROUSSE,LA DESTROUSSE,4,0,0,43.38285,5.599903
62130574,TENNIS LOISIRS TOURSAINTE,MARSEILLE,7,0,0,43.348564,5.391941
62130347,TENNIS PADEL CLUB PEYNIER,PEYNIER,4,2,0,43.447826,5.641302
62130004,TENNIS PARK MARSEILLE,MARSEILLE,11,0,1,43.300587,5.49311
62130180,TENNIS SPORTING CLUB DE CASSIS,CASSIS,9,3,0,43.231106,5.533148
62138016,TENNIS et PADEL MUNICIPAUX ST VICTORET,ST VICTORET,6,2,0,43.41452,5.24325
62130052,TOTAL PROVENCE SPORTS,LA MEDE,2,0,0,43.39923,5.111521
62130401,UCS DOUANES PEYSSONNEL TENNIS,MARSEILLE 03,5,0,0,43.310814,5.37775
62130006,WILLIAM TENNIS CLUB,MARSEILLE,6,0,0,43.273182,5.380015
62830064,ASPTT HYERES - Section,HYERES,4,0,0,43.10974,6.180045
62830052,ASPTT TOULON - section,LA VALETTE DU VAR,6,0,0,43.126213,5.986719
62830290,BORMES MIMOSAS TC,BORMES LES MIMOSAS,5,0,0,43.143986,6.332917
62L00830,COMITE VAR TENNIS,LA GARDE,4,0,2,43.148,6.044
62830066,CS CAVALAIROIS TENNIS,CAVALAIRE,5,0,0,43.19106,6.532248
62830028,CSA MEDITERRANEE - Tennis,TOULON,8,0,0,43.129807,5.922518
62830180,CST TENNIS,LA GARDE,11,1,2,43.14868,6.045505
62830417,SMASH CLUB,LE LAVANDOU,6,0,0,43.158558,6.425488
62830445,TC BELGENTIEROIS,BELGENTIER,2,0,0,43.245106,5.999776
62830316,TC BESSOIS,BESSE SUR ISSOLE,4,0,0,43.3496,6.1776
62830165,TC CARQUEIRANNE,CARQUEIRANNE,6,0,0,43.094185,6.080233
62830448,TC COLLOBRIERES,collobrieres,3,0,0,43.23735,6.30875
62830176,TC CUERSOIS,CUERS,4,0,0,43.237877,6.0722
62830344,TC DE CARNOULES,CARNOULES,4,0,0,43.294907,6.18014
62830327,TC DE FORCALQUEIRET,FORCALQUEIRET,4,0,0,43.335075,6.080943
62830102,TC DE ST MANDRIER,SAINT MANDRIER,4,0,0,43.077747,5.906078
62830088,TC DU CAP SICIE,LA SEYNE SUR MER,4,0,0,43.08626,5.885514
62830029,TC DU LITTORAL TOULON,TOULON,6,0,0,43.114468,5.941695
62830269,TC DU REVEST,LE REVEST LES EAUX,4,0,0,43.1693,5.92343
62830435,TC FLASSANNAIS,FLASSANS SUR ISSOLE,6,0,0,43.36739,6.21852
62830187,TC GONFARONNAIS,GONFARON,4,0,0,43.3236,6.294388
62830031,TC HYEROIS,HYERES,11,0,0,43.109924,6.137571
62830065,TC LA GARDE,LA GARDE,11,2,0,43.132217,6.023776
62830074,TC LE LAVANDOU,LE LAVANDOU,6,1,0,43.133293,6.36378
62830101,TC LONDAIS,LA LONDE,6,0,0,43.14229,6.232505
62830186,TC PIERREFEUCAIN,PIERREFEU DU VAR,3,0,0,43.22595,6.143766
62830126,TC PRADETAN,LE PRADET,5,0,0,43.105457,6.014675
62830455,TC SAINTE ANASTASIE,STE ANASTASIE SUR ISSOLE,2,0,0,43.33921,6.11987
62830230,TC SOLLIES PONT,SOLLIES PONT,10,0,2,43.193947,6.040149
62830081,TC TOULONNAIS,LA VALETTE DU VAR,11,10,0,43.13403,6.000001
62830294,TCM DE PIGNANS,PIGNANS,5,0,0,43.30077,6.2205
62830257,TCM DE PUGET VILLE,PUGET VILLE,2,1,0,43.289207,6.135894
62838001,TENNIS CLUB MUNICIPAL SEYNOIS,LA SEYNE SUR MER,10,0,0,43.09547,5.85783
62830399,TENNIS DES SOURCES,GAREOULT,3,0,0,43.335506,6.047871
62830157,TENNIS LA CRAU,LA CRAU,4,0,0,43.14642,6.083311
62830456,TENNIS PADEL ST CHARLES,LA GARDE,3,4,0,43.11655,6.011189
62060461,ACE LINE TENNIS PADEL PEGOMAS,PEGOMAS,1,0,0,43.598553,6.932742
62060195,AGASC TC MONTALEIGNE,CAGNES SUR MER,8,4,1,43.69302,7.17519
62060003,ALL IN CÔTE D'AZUR TENNIS CLUB ACADEMY,VILLENEUVE LOUBET,16,4,1,43.65965,7.096732
62060023,ALL IN TENNIS PADEL COUNTRY CLUB DE GRASSE,GRASSE,15,6,0,43.632412,6.953832
62060446,AMADEUS ATHLETIC ASSOCIATION,VILLENEUVE LOUBET,2,0,0,43.64382,7.124484
62830091,AMSLF TC GALLIENI,FREJUS,9,3,0,43.443073,6.751267
62060295,AS MOURATOGLOU CC,Biot,34,4,0,43.620922,7.06106
62060198,ASGTCS VAUBAN,NICE,7,0,0,43.71165,7.285455
62060137,ASLM TENNIS CANNES,CANNES LA BOCCA,16,0,0,43.560284,6.961751
62060401,ASOA TENNIS,ANTIBES,3,0,0,43.594627,7.072007
62060090,ASPTT CANNES,LE CANNET,5,0,0,43.565308,6.978652
62060007,ASPTT NICE,ST LAURENT DU VAR,7,1,0,43.679604,7.189563
62060379,ASS ROURETOISE DE TENNIS,LE ROURET,3,0,0,43.67053,7.016556
62060432,ASS TC DE L ARA,VENCE,3,0,0,43.719124,7.104206
62060442,ASS.SPORTS ET LOISIRS ST JACQUES,GRASSE,2,0,0,43.639156,6.911146
62060383,ASSA TENNIS,ANTIBES,3,0,0,43.599014,7.10364
62060287,ASTL ST CEZAIRE,ST CEZAIRE SUR SIAGNE,4,0,0,43.651985,6.793687
62830437,AT MONTAUROUX,MONTAUROUX,4,0,0,43.617897,6.771936
62830175,AT SAINT PAULOISE,ST PAUL EN FORET,3,0,0,43.56463,6.69795
62060444,AZUR TENNIS SPORTS VALROSE,NICE,3,2,0,43.71772,7.265223
62060454,CANNES TENNIS LACOUR,CANNES,7,0,0,43.54927,7.032461
62060124,CLUB TENNIS BASKET BALL,NICE,4,0,0,43.705475,7.252746
62060293,CMTVSA,VALBONNE,10,0,0,43.620472,7.045078
62830405,CSA 21° RIMA FREJUS - section,FREJUS,3,0,0,43.477806,6.718378
62060371,CSL CORNE OR,Villefranche sur Mer,2,0,0,43.705845,7.30392
62830034,GTC VALESCURE - section,SAINT RAPHAEL,10,0,0,43.451736,6.806893
62060459,HANDISPORT ANTIBES MEDITERRANEE,ANTIBES,2,1,0,43.59074,7.1186
62060418,LA RAQUETTE ROQUEFORTOISE,ROQUEFORT LES PINS,7,0,0,43.661472,7.035343
62068004,LA VILLA TENNIS CLUB,LE CANNET,2,0,0,43.563274,6.968321
62060449,MONTFLEURY CANNES TENNIS CLUB,CANNES,7,0,0,43.553738,7.03335
62060001,NICE  LAWN TENNIS CLUB,NICE,22,2,0,43.704556,7.252538
62830347,PADEL TENNIS CLUB DES ADRETS,LES ADRETS DE L'ESTEREL,2,2,0,43.529137,6.826979
62830130,SAINT RAPHAEL CC,ST RAPHAEL,24,0,0,43.433308,6.807242
62068002,SPORT ET LEISURE FRANCE,CHATEAUNEUF GRASSE,9,2,0,43.657257,6.975524
62060421,T POPULAIRE WEISWEILLER,ANTIBES,5,1,0,43.597633,7.085106
62060315,TC ACACIAS,CAGNES SUR MER,4,5,0,43.696804,7.158551
62060016,TC ANTIBES JUAN LES PINS,ANTIBES,17,1,0,43.59048,7.117095
62830340,TC BAGNOLS EN FORET,BAGNOLS EN FORET,2,0,0,43.53488,6.681202
62060238,TC BASTIDES DE GATTIERES,GATTIERES,4,0,0,43.7673,7.18538
62060305,TC CARROS,CARROS,4,2,0,43.76677,7.201972
62060436,TC CHATEAUNEUF,CHATEAUNEUF,4,0,0,43.6786,6.97284
62830412,TC D'AGAY,AGAY,4,1,0,43.43297,6.877199
62830318,TC DE FAYENCE,FAYENCE,4,0,0,43.623425,6.689287
62060274,TC GORBELLA,NICE,3,0,0,43.718204,7.256904
62060025,TC LA COLLE,LA COLLE SUR LOUP,5,0,0,43.68505,7.101266
62060407,TC LA ROSERAIE FONTMERLE,ANTIBES,3,0,0,43.581863,7.095361
62060207,TC MOUGINS,MOUGINS,8,2,0,43.590652,7.004231
62060002,TC MÉDITERRANEE,NICE,5,0,0,43.722466,7.25919
62060022,TC NICE GIORDAN,Nice,49,4,0,43.74541,7.187392
62060106,TC PEYMEINADE,PEYMEINADE,8,0,0,43.63833,6.873604
62830111,TC PUGETOIS,PUGET SUR ARGENS,4,2,0,43.45533,6.68408
62060303,TC ROQUETTAN,LA ROQUETTE SUR SIAGNE,4,4,0,43.58484,6.941669
62060271,TC TIGNET,LE TIGNET,5,1,0,43.632298,6.850025
62060419,TC VAL DE CAGNES,CAGNES SUR MER,3,0,0,43.68268,7.147717
62060243,TC VALLAURIS GOLFE JUAN,VALLAURIS,4,0,0,43.57206,7.0795
62060406,TC VESPINS,ST LAURENT DU VAR,4,0,2,43.6595,7.17987
62060100,TCM BIOT,BIOT,7,0,0,43.628147,7.101395
62060304,TCM CABRIS,CABRIS,4,0,0,43.65609,6.876883
62060296,TCM COLOMARS,COLOMARS,2,0,0,43.76603,7.222433
62830354,TCM DE CALLIAN,CALLIAN,3,0,0,43.629864,6.753793
62060144,TCM MOUANS SARTOUX,MOUANS SARTOUX,10,2,0,43.62626,6.954861
62060408,TCM OPIO,OPIO,4,0,0,43.660038,6.986985
62060350,TCM ST VALLIER DE THIEY,ST VALLIER DE THIEY,2,0,0,43.69852,6.847956
62060427,TCM VENCOIS,VENCE,8,3,0,43.706573,7.130392
62060270,TENNIS ALTITUDE 500 GRASSE,GRASSE,5,0,0,43.668457,6.922974
62060024,TENNIS ARENES DE CIMIEZ,NICE,5,0,0,43.71524,7.277517
62060441,TENNIS CLUB FIELDING,NICE,5,0,0,43.69412,7.236584
62060302,TENNIS DES BAOUS,ST JEANNET,4,0,0,43.74421,7.155827
62060437,TENNIS ET GLISSE,NICE,1,0,0,43.6709,7.208445
62060384,TENNIS ET PADEL CLUB BARBOSSI,MANDELIEU LA NAPOULE,4,3,0,43.525154,6.91483
62060450,TENNIS PARC LE CANNET,LE CANNET,11,0,0,43.5777,7.0058
62060224,TOURRETTES TC,TOURRETTES SUR LOUP,3,0,0,43.71644,7.062292
62830454,ULTRA CAP ESTEREL COUNTRY CLUB,ST RAPHAEL,10,7,0,43.425587,6.85676
62060456,ULTRA COUNTRY CLUB,NICE,2,5,0,43.726013,7.269478
62060107,US CAGNES TENNIS,CAGNES SUR MER,15,3,0,43.67284,7.149736
62060147,USCCA TENNIS,NICE,2,0,0,43.71845,7.291287
62050368,TC ARGENTIERE,L ARGENTIERE LA BESSEE,4,0,0,44.782356,6.556701
62050086,TC BRIANCON,BRIANCON,7,0,0,44.889572,6.630743
62050361,TC GUILLESTRE,GUILLESTRE,4,0,0,44.659817,6.636484
62050416,TC ST MARTIN QUEYRIERES,Saint MARTIN DE QUEY,3,0,0,44.858135,6.591241
59160100,AUBETERRE SUR DRONNE TC,AUBETERRE SUR DRONNE,3,0,0,45.269344,0.176492
59330679,CASTILLON TENNIS CLUB,GARDEGAN ET TOURTIRAC,3,0,0,44.85826,-0.046613
59330590,DRONNE TC,les peintures,3,0,0,45.103577,-0.074608
59330027,EGLISOTTES ASL,COUTRAS,3,0,0,45.04067,-0.129361
59240571,FORCE TC LA,LA FORCE,2,0,0,44.87001,0.379667
59330626,GENSAC MOULIETS TC,MOULIETS ET VILLEMARTIN,4,0,0,44.84073,-0.017114
59330599,GUIZIEROIS TC,ST MEDARD DE GUIZIERES,2,0,0,45.01952,-0.057549
59240541,MENESPLET TC,MENESPLET,3,0,0,45.0186,0.108333
59330054,MONTAGNE-ST EMILION,ST EMILION,5,1,0,44.896267,-0.155724
59240142,MONTPON,MONTPON MENESTEROL,5,0,0,45.00376,0.1594
59240095,MUSSIDAN TC,MUSSIDAN,3,0,0,45.037086,0.364299
59240187,NEUVIC TC,NEUVIC,3,0,0,45.11591,0.466831
59240664,PAYS FOYEN TC,PORT STE FOY ET PONCHAPT,6,0,0,44.847744,0.223218
59240425,PINEUILH SAINT AVIT TC,PINEUILH,4,0,0,44.830128,0.222555
59240482,PRIGONRIEUX TC,PRIGONRIEUX,4,0,0,44.85525,0.401689
59330492,PUJOLS CT,PUJOLS,2,0,0,44.808388,-0.031328
59330600,RAQUETTES CLUB CONFLUENCE 33,Abzac,6,0,0,45.016727,-0.134011
59240103,ROCHE CHALAIS TC,LA ROCHE CHALAIS,3,0,0,45.152473,0.006871
59170181,SAINT AIGULIN TC,ST AIGULIN,6,0,0,45.154396,-0.013469
59240221,SAINT AULAYE TC,ST AULAYE,4,0,0,45.204147,0.138012
59240577,SAINT LAURENT DES HOMMES,ST LAURENT DES HOMMES,1,0,0,45.036533,0.256297
59240632,SAINT MARTIAL ARTENSET,ST MARTIAL D ARTENSET,3,0,0,45.015575,0.212588
59330005,SAINT SEURIN TC,ST SEURIN SUR L ISLE,4,0,0,45.015354,0.003845
59330714,VAL DE L'ISLE TC,COUTRAS,10,0,0,45.03858,-0.135069
59330378,VIGNES TC,LUSSAC,10,0,0,44.94971,-0.103178
50420420,RIORGEOIS (TENNIS CLUB DE),RIORGES,6,2,0,46.04466,4.048467
62840175,A.S. ANGLOISE TENNIS CLUB,LES ANGLES,6,0,0,43.9465,4.7772
62840069,A.S. BEDARRIDES,BEDARRIDES,4,0,0,44.040253,4.889698
62840366,A.S. CAROMBAISE,CAROMB,3,0,0,44.05757,5.120476
62840161,A.S. CHEMINOTS D'AVIGNON,AVIGNON,2,0,0,43.937237,4.826524
62840294,A.S. THOROISE,LE THOR,6,0,0,43.93552,4.99082
62840154,A.S. VILLENEUVOISE T.C,VILLENEUVE-LES-AVIGNON,6,0,0,43.97048,4.799749
62840116,A.S.P.T.T  AVIGNON,LES ANGLES,3,0,0,43.941307,4.774799
62840496,A.S.P.T.T CARPENTRAS,CARPENTRAS,4,2,0,44.03965,5.055938
62060325,ACT BLAUSASC,BLAUSASC,2,0,0,43.80532,7.36211
62830377,AMPUS TC,AMPUS,2,0,0,43.60664,6.386326
60300004,AS BAS RHONE LANGUEDOC-NIMES,NIMES,12,0,0,43.819912,4.388618
60300318,AS BOUILLARGUES,BOUILLARGUES,5,0,0,43.799294,4.41709
60300188,AS CAISSARGUES,CAISSARGUES,4,0,0,43.788918,4.382475
62060403,AS CASTAGNIERS,CASTAGNIERS,3,0,0,43.789665,7.235535
62130418,AS DES CHEMINOTS DE MIRAMAS,MIRAMAS,2,0,0,43.58445,4.997865
62130599,AS FETE LE MUR ARLES/SALON,SALON DE PROVENCE,2,0,0,43.649105,5.101589
62130591,AS SENAS TENNIS,SENAS,6,0,0,43.74363,5.084681
62830443,AS TENNIS PADEL LUCOIS,LE LUC,4,2,0,43.3865,6.30617
62050532,AS VARS,VARS,6,0,0,44.572662,6.679992
60340519,ASCM SAINT JUST,SAINT JUST,2,0,0,43.65764,4.117361
62060453,ASPREMONT TENNIS CLUB,ASPREMONT,2,0,0,43.782516,7.25148
62830063,ASPTT DRAGUIGNAN - section,DRAGUIGNAN,6,0,0,43.52331,6.464822
62050276,ASPTT GAP,GAP,4,0,0,44.548077,6.060106
62040350,ASPTT MANOSQUE,MANOSQUE,4,0,0,43.84165,5.776381
60340009,ASPTT MONTPELLIER,MONTPELLIER,19,4,0,43.61228,3.92343
60300140,ASPTT NIMES,NÎMES,3,0,0,43.856102,4.397462
60300683,ASSO CALMETTOISE DE TENNIS,LA CALMETTE,3,0,0,43.918407,4.265031
62840441,ASSOCIATION ALTHENOISE DE TENNIS,ALTHEN-DES-PALUDS,2,0,0,44.004993,4.956936
62840551,ASSOCIATION DU TENNIS A CRILLON,CRILLON LE BRAVE,2,0,0,44.121414,5.17285
62060240,ASSOCIATION SPORTIVE DE GORBIO,GORBIO,2,0,0,43.780746,7.450268
62830400,AT GRIMAUD,GRIMAUD,3,0,0,43.2732,6.520008
60300655,AT MONTFAUCON,MONTFAUCON,2,0,0,44.073692,4.750945
62130153,AVT ASSOCIATION VENELLOISE DE TENNIS,VENELLES,11,2,0,43.596275,5.499524
60300702,BAGNOLS TENNIS GARD RHODANIEN,BAGNOLS-SUR-CEZE,11,2,0,44.13914,4.62909
62830450,BARGEMON TENNIS CLUB,BARGEMON,1,0,0,43.61939,6.554897
62840089,BOXELAND CLUB ISLOIS,L ISLE SUR LA SORGUE,6,0,0,43.924187,5.051204
62840247,CAMARET TENNIS CLUB,CAMARET,7,0,0,44.165028,4.8786
62138011,CAMARG'ANIM,ARLES,10,2,0,43.65078,4.64229
62130610,CAMARGUE TENNIS CLUB,SAINTES MARIES DE LA MER,2,0,0,43.45394,4.43312
60L00005,CENTRE DE LIGUE MEDITERRANEE,LA GRANDE MOTTE,3,0,0,43.560703,4.086072
60300276,CLARENSAC TENNIS CLUB,CLARENSAC,4,0,0,43.824646,4.232585
60340496,CLUB DE TENNIS SAINT DREZERY,ST DREZERY,3,0,0,43.733433,3.97806
62060089,CLUB OMNISPORTS EZE,EZE,1,0,0,43.723206,7.352823
62130171,CLUB PORT ST LOUIS DU RHONE,PORT-ST-LOUIS-DU-RHONE,4,0,0,43.393936,4.802245
62060247,CMT CONTES,CONTES,3,0,0,43.815407,7.315597
60340234,CO CARNON,CARNON,6,0,0,43.545982,3.979898
62L00050,COMITE HAUTES ALPES TENNIS,GAP,4,2,0,44.54008,6.058688
62L00840,COMITE VAUCLUSE TENNIS,LE PONTET,3,0,0,43.958374,4.856947
62830433,COTIGNAC TC,COTIGNAC,2,1,0,43.52917,6.148583
62130030,COUNTRY CLUB AIXOIS,AIX-EN-PROVENCE,18,0,0,43.568306,5.417343
62840579,COURTH'TENNIS CLUB,courthézon,4,0,0,44.09354,4.882917
60300158,CS CHEMINOTS NIMES,NIMES,3,0,0,43.84872,4.396541
62830116,CSMT LA COUDOULIERE,SIX FOURS LES PLAGES,7,0,0,43.101143,5.823404
62830212,CT DE SEILLANS,SEILLANS,3,0,0,43.63571,6.64844
62130141,DASSAULT ISTRES SPORTS,ST-CHAMAS,4,2,0,43.55067,5.034508
50260494,DIEULEFIT .U.S.,DIEULEFIT,4,0,0,44.522636,5.061207
50260255,DIEULEFIT T.C.JABRON,DIEULEFIT,3,0,0,44.520584,5.061671
62060460,DYNAMIC'SPORT,Tourrettes-Levens,2,1,1,43.80081,7.27126
62138008,EGUILLES TENNIS CLUB,EGUILLES,7,0,0,43.57417,5.343355
62840332,ENERGIE SPORTIVE AVIGNONNAISE,AVIGNON,3,0,0,43.972298,4.831694
60340677,ENTRE VIGNES TENNIS CLUB,ST CHRISTOL,2,0,0,43.7251,4.08256
50260516,GRANGES GONTARDES TENNIS CLUB,LES GRANGES GONTARDES,2,0,0,44.416454,4.766985
50260212,GRIGNAN TENNIS CLUB,GRIGNAN,4,0,0,44.419502,4.909444
62060068,GSEM TENNIS,NICE,9,1,0,43.74443,7.302997
62130133,ISTRES SPORTS TENNIS,ISTRES,11,0,0,43.475998,4.993344
62830422,LA MOTTE TC,LA MOTTE,3,0,0,43.48805,6.545721
62130229,LA RAQUETTE D'EYGUIERES,EYGUIERES,6,0,0,43.68642,5.03158
62060452,LA TURBIE TENNIS CLUB,LA TURBIE,4,0,0,43.736767,7.399896
62840106,LAPALUD TENNIS CLUB,LAPALUD,4,0,0,44.30412,4.688778
62830444,LES TENNIS DU GRAND PRE,ENTRECASTEAUX,2,0,0,43.518063,6.240792
62L01000,LIGUE PROVENCE-ALPES-COTE D'AZUR,AIX EN PROVENCE,25,4,4,43.568703,5.418492
50260275,LUC EN DIOIS TENNIS CLUB,LUC EN DIOIS,2,0,0,44.614647,5.444586
62130159,MALLEMORT TENNIS CLUB,MALLEMORT,5,0,0,43.724792,5.179409
62130588,MEYRARGUES TENNIS CLUB,MEYRARGUES,4,0,0,43.635254,5.521677
50260615,MIRABEL PIEGON TENNIS CLUB,MIRABEL AUX BARONNIES,2,2,0,44.30345,5.056585
62060004,MONTE CARLO COUNTRY CLUB,ROQUEBRUNE CAP MARTIN,23,0,0,43.751644,7.439524
50260291,MONTSEGUR TENNIS CLUB,MONTSEGUR SUR LAUZON,2,0,0,44.360348,4.860267
62830117,MY CENTER CLUB COGOLIN,COGOLIN,6,0,0,43.24397,6.551006
62130033,NOSTRA TENNIS CLUB,SALON-DE-PROVENCE,10,0,0,43.637676,5.091985
50260234,NYONS TC,NYONS,3,2,0,44.35565,5.134126
62840062,ORANGE RAQUETTES CLUB,ORANGE,11,2,0,44.130672,4.831888
50260009,PIERRELATTE TC,PIERRELATTE,7,2,0,44.365055,4.698593
62840582,PUYMERAS TENNIS CLUB,PUYMERAS,2,0,0,44.269657,5.126224
60300528,RAQUETTE BERNISSOISE,BERNIS,2,0,0,43.76328,4.284822
62840335,RAQUETTE CECILIENNE,STE-CECILE-LES-VIGNES,2,0,0,44.234062,4.884623
60300341,RAQUETTE CLUB PORT CAMARGUE,PORT CAMARGUE,15,0,0,43.520325,4.139561
62040545,RAQUETTE STEPHANOISE,ST ETIENNE LES ORGUES,3,0,0,44.045673,5.778438
62830251,RC CANNETOIS,LE CANNET DES MAURES,4,0,0,43.38997,6.344493
62130565,REAL TENNIS CLUB,JOUQUES,3,0,0,43.63595,5.636486
60300297,REMOULINS SPORT TENNIS,REMOULINS,3,0,0,43.936787,4.560749
62830425,RIANS TC,RIANS,3,0,0,43.604294,5.755355
62840334,ROBION LAGNES TENNIS CLUB,ROBION,6,0,0,43.85316,5.108999
50070540,SAINT MARTIN D'ARDECHE T.C.,ST MARTIN D ARDECHE,3,2,0,44.303795,4.561687
50260014,SAINT PAUL 3 CHATEAUX T.C.,ST PAUL TROIS CHATEAUX,5,2,0,44.351192,4.7793
62830436,SAINTE MAXIME TENNIS,SAINTE MAXIME,10,0,0,43.300518,6.624778
60308002,SARL LES HAUTS DE NIMES TENNIS,NIMES,10,0,0,43.862396,4.292405
62840373,SERIGNAN TENNIS CLUB 84,SERIGNAN DU COMTAT,2,0,0,44.190815,4.848335
62840344,SPORTING CLUB MAZANAIS,MAZAN,4,0,0,44.05499,5.122365
62840207,T.C CADEROUSSIEN,CADEROUSSE,4,0,0,44.13799,4.792414
62840096,T.C CAVAILLON,CAVAILLON,8,1,0,43.836605,5.040781
62840484,T.C CHEVALBLANAIS,CHEVAL-BLANC,3,1,0,43.836376,5.095726
62130386,T.C EYRAGUAIS,EYRAGUES,4,0,0,43.84158,4.841977
62840515,T.C GOULTOIS,GOULT,2,0,0,43.863674,5.242289
62130384,T.C GRANS,GRANS,5,0,1,43.60389,5.079206
62840114,T.C JONQUIEROIS,JONQUIERES,3,0,0,44.113644,4.903519
62840451,T.C LORIOLAIS,LORIOL DU COMTAT,2,0,0,44.076656,5.006242
62130461,T.C MAILLANAIS,MAILLANE,3,0,0,43.818836,4.786661
62130143,T.C MAUSSANE LES ALPILLES,MAUSSANE-LES-ALPILLES,5,0,0,43.723347,4.803595
62840539,T.C MONTFAVET,MONTFAVET,5,0,0,43.9315,4.883669
62840235,T.C MORIERES-LES-AVIGNON,MORIERES-LES-AVIGNON,4,0,0,43.933826,4.905552
62840427,T.C MOULIN,ST-SATURNIN-LES-AVIGNON,3,0,0,43.959335,4.926153
62130039,T.C NOVAIS,NOVES,4,0,0,43.876793,4.904478
62130283,T.C PELISSANNAIS,PELISSANNE,6,0,0,43.632378,5.149982
62840248,T.C PIOLENC,PIOLENC,3,0,0,44.173225,4.763244
62130139,T.C PUY-STE-REPARADE,LE PUY-STE-REPARADE,5,0,0,43.660366,5.425094
62130382,T.C PUYLOUBIER,PUYLOUBIER,2,0,0,43.527054,5.68225
62130410,T.C RAPHELOIS,RAPHELE-LES-ARLES,4,0,0,43.65157,4.721416
62130185,T.C ROGNONAIS,ROGNONAS,3,0,0,43.89798,4.807255
62840436,T.C SABLET,SABLET,2,0,0,44.192425,5.006335
62130320,T.C ST-CHAMAS,ST-CHAMAS,5,0,0,43.543694,5.045769
62130146,T.C ST-MARTINOIS,ST-MARTIN-DE-CRAU,7,0,0,43.63914,4.818991
62840271,T.C ST-SATURNIN-D'APT,ST-SATURNIN-D'APT,2,0,0,43.939884,5.366666
62840426,T.C VACQUEYRASSIEN,VACQUEYRAS,2,0,0,44.13977,4.985501
62840060,T.C VALREAS,VALREAS,6,0,0,44.368313,4.981259
62130246,T.C VELAUX,VELAUX,7,0,0,43.53594,5.247669
62840311,T.C VELLERONNAIS,VELLERON,2,0,0,43.958477,5.030762
62840312,T.C VENASQUE,VENASQUE,2,0,0,43.988148,5.150353
62130124,T.C. CHATEAURENARDAIS,CHATEAURENARD,6,0,0,43.880836,4.869396
62130379,T.C.M. COUDOUX,COUDOUX,5,0,0,43.553654,5.24032
62050535,TALLARD TENNIS CLUB,TALLARD,2,0,0,44.45564,6.048419
62830453,TARADEAU TENNIS CLUB,TARADEAU,2,0,0,43.451252,6.431372
50260414,TAULIGNAN TENNIS CLUB,TAULIGNAN,2,0,0,44.385612,4.99283
60300385,TC AIGUES MORTES,AIGUES MORTES,6,0,0,43.570507,4.194838
60300325,TC AIGUES VIVES,AIGUES VIVES,3,0,0,43.732098,4.18767
60300191,TC AIMARGUES,AIMARGUES,5,0,0,43.68591,4.210358
60300351,TC ARAMON,ARAMON,4,0,0,43.889503,4.682956
62830220,TC ARCOIS,LES ARCS,4,0,0,43.453663,6.483779
62050507,TC ASPRES SUR BUECH,ASPRES SUR BUECH,1,0,0,44.523132,5.749486
60300483,TC AUBORD,AUBORD,3,0,0,43.76033,4.315767
62840583,TC AVIGNON BARTHELASSE,AVIGNON,4,0,3,43.96849,4.83315
60300006,TC BAGNOLS MARCOULE,BAGNOLS SUR CEZE,6,0,0,44.138504,4.629107
60340270,TC BAILLARGUES,BAILLARGUES,8,5,0,43.6675,4.0192
62040098,TC BARCELONNETTE,BARCELONNETTE,6,0,0,44.385113,6.658783
62050257,TC BATIE-NEUVE,LA BATIE NEUVE,4,0,0,44.566574,6.194355
60300034,TC BEAUCAIROIS,BEAUCAIRE,5,0,0,43.802086,4.645849
62060005,TC BEAULIEU,BEAULIEU SUR MER,8,0,0,43.70772,7.33437
62060433,TC BEAUSOLEIL,BEAUSOLEIL,7,4,0,43.745598,7.416432
60300491,TC BEAUVOISIN,BEAUVOISIN,3,0,0,43.721508,4.32749
60300160,TC BELLEGARDE,BELLEGARDE,8,0,0,43.757824,4.511579
62060393,TC BENDEJUN LES SOURCES,BENDEJUN,1,0,0,43.83218,7.297998
60300699,TC BLAUZACOIS,BLAUZAC,2,0,0,43.96603,4.36464
60340492,TC BOISSERON,BOISSERON,2,0,0,43.75387,4.085267
62060110,TC BREIL SUR ROYA,BREIL SUR ROYA,2,0,0,43.94074,7.517084
60300518,TC BRIGNON,BRIGNON,2,0,0,43.987762,4.210696
62040549,TC BRILLANNE,LA BRILLANNE,1,0,0,43.928047,5.887633
60300316,TC CAILAREN,LE CAILAR,3,0,0,43.67144,4.234493
60300242,TC CALVISSON,CALVISSON,5,0,0,43.781624,4.193223
62060402,TC CAP D'AIL MARQUET,CAP D AIL,5,0,0,43.72508,7.411506
60340658,TC CASTELNAUVIEN,CASTELNAU LE LEZ,10,0,0,43.629257,3.904894
60300378,TC CAVEIRAC,CAVEIRAC,6,0,0,43.823647,4.275222
62040077,TC CHATEAU-ARNOUX / ST AUBAN,ST AUBAN,6,0,0,44.066525,5.990336
62130055,TC CHEMINOTS ARLESIEN,ARLES,4,0,0,43.68361,4.634673
60300564,TC CODOGNAN,CODOGNAN,3,0,0,43.73397,4.228501
60300426,TC COMPS,COMPS,2,0,0,43.850124,4.604317
60300266,TC CONGENIES,CONGENIES,3,0,0,43.782257,4.148735
60340162,TC CRESSOIS,LE CRES,5,0,0,43.643944,3.933716
62830427,TC D'AUPS,AUPS,2,0,0,43.627365,6.22354
62040550,TC DAUPHIN,DAUPHIN,1,0,0,43.899597,5.787513
62830032,TC DE BANDOL,BANDOL,7,7,0,43.136417,5.754186
62830033,TC DE BRIGNOLES,BRIGNOLES,4,0,0,43.40655,6.061187
62830216,TC DE LA CELLE,LA CELLE,3,0,0,43.393993,6.041015
60340586,TC DE RESTINCLIERES BEAULIEU,RESTINCLIERES,7,0,0,43.72463,4.033998
62830242,TC DE SIGNES,SIGNES,2,0,0,43.290936,5.863162
60300622,TC DE ST GENIES,SAINT GENIES DE MALGOIRES,3,0,0,43.944946,4.224263
60300679,TC DE ST VICTOR LA COSTE,ST VICTOR LA COSTE,3,0,0,44.063023,4.649793
62040544,TC DIGNE,DIGNE LES BAINS,5,0,0,44.099373,6.249153
62830035,TC DRACENOIS,DRAGUIGNAN,14,3,0,43.520237,6.484345
60300513,TC DU DUCHE-UZES,UZES,4,0,0,44.00242,4.406446
60300578,TC DU PARC-JONQUIERES ST VINCENT,JONQUIERES ST VINCENT,3,0,0,43.827225,4.563317
62830049,TC DU ROSAIRE,SANARY SUR MER,5,0,0,43.118095,5.789576
62830438,TC DU VAL D'ISSOLE,LA ROQUEBRUSSANNE,5,0,0,43.335342,5.984157
62050088,TC EMBRUN,EMBRUN,5,0,0,44.551308,6.480457
62060372,TC EZE,EZE,3,4,0,43.73364,7.353052
62830404,TC FIGANIERES CALLAS,FIGANIERES,3,0,0,43.569405,6.496756
62040115,TC FORCALQUIER,FORCALQUIER,4,0,0,43.963207,5.786675
60300443,TC FOURQUES,FOURQUES,4,0,0,43.69805,4.609543
62050084,TC GAP,GAP,9,0,0,44.54206,6.061819
60300488,TC GENERAC,GENERAC,2,0,0,43.72686,4.341356
60300167,TC GRAU DU ROI,GRAU DU ROI,15,0,0,43.53571,4.142254
62040487,TC GREOUX LES BAINS,GREOUX LES BAINS,3,0,0,43.755985,5.889322
60340647,TC JACOU,JACOU,5,0,0,43.659096,3.92097
60300258,TC L'ARDOISE LAUDUN,LAUDUN,4,0,0,44.09882,4.680241
62040498,TC L'ESCALE,L ESCALE,2,0,0,44.080025,6.022052
62830178,TC LA CROIX VALMER,LA CROIX VALMER,5,0,0,43.21105,6.565784
60340141,TC LA GRANDE MOTTE,LA GRANDE MOTTE,29,0,0,43.560574,4.099944
60300340,TC LANGLADE,LANGLADE,10,0,0,43.79807,4.239977
60340217,TC LANSARGUES,LANSARGUES,4,0,0,43.653538,4.078508
62050188,TC LARAGNE,LARAGNE MONTEGLIN,5,0,0,44.318005,5.827265
60340475,TC LATTES,LATTES,10,0,0,43.565025,3.917829
60300284,TC LES COURBIERS,NIMES,5,0,0,43.83459,4.404281
62040200,TC LES MEES,LES MEES,4,0,0,44.023987,5.958023
60300091,TC LES ROQUETTES-BAGNOLS,BAGNOLS SUR CEZE,6,0,0,44.141884,4.636368
60340043,TC LUNEL,LUNEL,6,0,0,43.674206,4.123219
60340512,TC LUNEL VIEL,LUNEL VIEL,4,0,0,43.67522,4.089554
62840574,TC MALEMORT DU COMTAT,MALEMORT DU COMTAT,1,0,0,44.02094,5.159771
62040260,TC MALIJAI,MALIJAI,2,0,0,44.044888,6.03593
60300337,TC MANDUEL,MANDUEL,5,0,0,43.80856,4.473362
62040078,TC MANOSQUE,MANOSQUE,7,0,0,43.825466,5.793375
60340335,TC MARSILLARGUES,MARSILLARGUES,3,0,0,43.664814,4.174043
60340096,TC MAURIN,LATTES,7,0,0,43.56027,3.879559
62060008,TC MENTON,MENTON,8,0,0,43.774315,7.493853
60300541,TC MEYNOIS,MEYNES,2,0,0,43.877155,4.555005
60300220,TC MILHAUD,MILHAUD,3,0,0,43.782684,4.308257
62060060,TC MONACO,CAP D AIL,4,0,0,43.73381,7.411889
60300560,TC MONTFRIN,MONTFRIN,3,0,0,43.879597,4.592441
60300696,TC MUNICIPAL KENNEDY,NIMES,6,0,0,43.82814,4.347312
62830140,TC MUYOIS,LE MUY,4,0,0,43.469868,6.554569
62830352,TC NANS LES PINS,NANS LES PINS,3,2,0,43.37469,5.77788
60300049,TC NIMES,NIMES,9,0,0,43.8448,4.375261
60300304,TC OPPIDUM-NAGES & SOLORGUES,NAGES & SOLORGUES,2,0,0,43.789368,4.232788
62040240,TC ORAISON,ORAISON,3,0,0,43.925087,5.920299
62040268,TC PEYRUIS,PEYRUIS,3,0,0,44.02632,5.938589
62040254,TC PIERREVERT,PIERREVERT,3,0,0,43.811375,5.749294
62830253,TC PLAN DE LA TOUR,PLAN DE LA TOUR,4,0,0,43.33532,6.566796
60300406,TC POULX AVENIR,POULX,4,0,0,43.911438,4.418529
62040537,TC PRALOUP - MOLANES,PRA LOUP,9,0,0,44.36958,6.602466
62830183,TC RAMATUELLOIS - section,RAMATUELLE,4,2,0,43.21523,6.616336
60300387,TC REDESSAN,REDESSAN,4,0,0,43.8346,4.502139
62040471,TC REILLANNE,REILLANNE,3,0,0,43.880016,5.658066
62050456,TC RIBIERS,RIBIERS,1,0,0,44.230053,5.857631
62040389,TC RIEZ,RIEZ,3,0,0,43.811493,6.105368
60300362,TC ROCHEFORT,ROCHEFORT DU GARD,3,0,0,43.97932,4.684873
60300133,TC RODILHAN,RODILHAN,4,0,0,43.823433,4.432797
62830204,TC ROQUEBRUNE,ROQUEBRUNE SUR ARGENS,13,1,0,43.443207,6.646973
62060333,TC ROQUEBRUNE CAP MARTIN,ROQUEBRUNE CAP MARTIN,6,0,0,43.77273,7.469468
60300177,TC ROQUEMAURE,ROQUEMAURE,4,0,0,44.04542,4.77252
62830381,TC ROUGIEROIS,ROUGIERS,2,0,0,43.393158,5.845116
60340212,TC SAINT AUNES,SAINT AUNES,3,0,0,43.64156,3.965854
60340054,TC SAINT GEORGES,CASTELNAU LE LEZ,6,0,0,43.632847,3.920398
60300138,TC SAINT GILLES,SAINT GILLES,8,0,0,43.671078,4.403593
60300470,TC SAINT LAURENT DES ARBRES,SAINT LAURENT DES ARBRES,3,0,0,44.057922,4.708184
60300190,TC SAINT LAURENTAIS,SAINT LAURENT D'AIGOUZE,2,0,0,43.63677,4.193545
60300326,TC SAINT PAULETOIS,SAINT PAULET DE CAISSON,3,0,0,44.263252,4.597773
62830136,TC SALERNOIS,SALERNES,4,0,0,43.56012,6.242027
60300697,TC SAUVETERRE,SAUVETERRE,2,0,0,44.077248,4.799485
62040117,TC SISTERON,SISTERON,5,0,0,44.19312,5.951478
60300203,TC SOMMIERES,SOMMIERES,6,0,0,43.78764,4.086916
62060103,TC SOSPEL,SOSPEL,4,0,0,43.879723,7.44158
60300057,TC SPIRIPONTAIN,PONT SAINT ESPRIT,4,0,0,44.25409,4.63692
62060261,TC ST ANDRE DE LA ROCHE L'ABADIE,ST ANDRE DE LA ROCHE,4,1,0,43.743057,7.284776
62050194,TC ST BONNET,ST BONNET EN CHAMPSAUR,6,0,0,44.676853,6.082794
60340679,TC ST GENIES DES MOURGUES,ST GENIES DES MOURGUES,2,0,0,43.694115,4.02543
62130587,TC ST MARC JAUMEGARDE,ST MARC JAUMEGARDE,3,0,0,43.547466,5.52278
60300425,TC ST QUENTIN LA POTERIE,SAINT QUENTIN LA POTERIE,3,0,0,44.038757,4.447254
60300553,TC ST SIFFRET LA PINEDE,SAINT SIFFRET,2,0,0,44.009445,4.469789
60340616,TC SUSSARGUOIS,SUSSARGUES,3,0,0,43.71641,4.005188
60300695,TC TAVEL,TAVEL,3,0,0,44.009785,4.693565
60340358,TC TEYRAN,TEYRAN,6,0,0,43.68146,3.932396
62830345,TC TOURVAIN,TOURVES,4,0,0,43.407932,5.923409
60300642,TC UCHAUDOIS,UCHAUD,2,0,0,43.750122,4.273454
62830054,TC US TROPEZIENNE,SAINT TROPEZ,7,3,0,43.259277,6.632035
60300020,TC UZES,UZES,5,0,0,44.01211,4.419946
62040535,TC VALENSOLE,VALENSOLE,3,0,0,43.838116,5.994209
62060431,TC VALLEES D'AZUR,PUGET THENIERS,4,0,0,43.95274,6.900063
62830382,TC VALOIS,LE VAL,2,0,0,43.440994,6.074629
60300106,TC VAUVERT,VAUVERT,6,0,0,43.69999,4.270877
60340324,TC VENDARGUES,VENDARGUES,6,0,0,43.659058,3.973728
62040183,TC VERDON,ST ANDRE LES ALPES,4,0,0,43.964027,6.512895
60300232,TC VERGEZE,VERGEZE,5,0,0,43.748173,4.223596
60300223,TC VERS PONT DU GARD,VERS PONT DU GARD,3,0,0,43.967087,4.52405
62050152,TC VEYNES,VEYNES,4,0,0,44.53348,5.814432
62830047,TC VIDAUBANNAIS,VIDAUBAN,5,0,0,43.43123,6.428032
62040414,TC VILLENEUVE,VILLENEUVE,2,0,0,43.89022,5.869858
62040144,TC VINON/VERDON,VINON SUR VERDON,4,0,0,43.727417,5.823082
50260470,TC VISAN-TULETTE,TULETTE,4,0,0,44.286026,4.949255
62040252,TC VOLX,VOLX,2,0,0,43.870872,5.837774
60300291,TCM CONNAUX,CONNAUX,5,0,0,44.084,4.589946
62830281,TCM DE SAINT MAXIMIN,ST MAXIMIN LA STE BAUME,6,0,0,43.458378,5.883922
62830030,TCM DE SIX FOURS,SIX FOURS LES PLAGES,6,0,0,43.108894,5.819612
62830260,TCM DU CASTELLET,LE CASTELLET,3,0,0,43.177174,5.773678
62060396,TCM FALICON,FALICON,2,0,0,43.75889,7.260628
60300472,TCM LA CIGALE-NIMES,NIMES,8,0,0,43.840977,4.339152
62830334,TCP DE VILLECROZE,VILLECROZE,2,0,0,43.583855,6.277665
60340463,TENNIS & PADEL CLUB DE CASTRIES,CASTRIES,6,2,0,43.693874,3.993845
62840228,TENNIS CLUB  MONTEUX,MONTEUX,6,0,0,44.028538,5.006686
62130263,TENNIS CLUB ALLEINS,ALLEINS,4,0,0,43.703712,5.161234
62840061,TENNIS CLUB APTESIEN,APT,7,2,4,43.892708,5.378423
62130443,TENNIS CLUB AUREILLOIS,AUREILLE,2,0,0,43.707188,4.947103
62840059,TENNIS CLUB AVIGNON,VILLENEUVE LES AVIGNON,11,0,0,43.96331,4.79194
62130330,TENNIS CLUB BARBENTANE,BARBENTANE,2,0,0,43.893234,4.746047
62840568,TENNIS CLUB BEAUMONTAIS,BEAUMONT DE PERTUIS,1,0,0,43.73765,5.688886
62840280,TENNIS CLUB BEDOIN,BEDOIN,3,0,0,44.1232,5.176516
62840491,TENNIS CLUB BONNIEUX,BONNIEUX,2,0,0,43.82717,5.306994
62840189,TENNIS CLUB CADENET,CADENET,4,0,0,43.734142,5.377208
60340709,TENNIS CLUB CANDILLARGUES,CANDILLARGUES,2,0,0,43.622784,4.074947
62840063,TENNIS CLUB CARPENTRAS,CARPENTRAS,6,2,0,44.052883,5.050495
60300415,TENNIS CLUB CARREAU DE LANES,NIMES,3,4,0,43.826103,4.305136
62840380,TENNIS CLUB CAUMONTOIS,Caumont sur Durance,2,0,0,43.893257,4.944208
62130481,TENNIS CLUB CHARLEVAL,CHARLEVAL,5,2,1,43.71403,5.247163
62840070,TENNIS CLUB CHATEAUNEUVOIS,CHATEAUNEUF-DU-PAPE,3,0,0,44.042145,4.82181
60300343,TENNIS CLUB CHUSCLAN,CHUSCLAN,2,0,0,44.14899,4.682918
62130262,TENNIS CLUB CORNILLON,CORNILLON-CONFOUX,2,0,0,43.567127,5.071474
62840571,TENNIS CLUB CUCURON VAUGINES,CUCURON,2,0,0,43.773075,5.438812
62830449,TENNIS CLUB Carçois,CARCES,2,0,0,43.479015,6.181627
62840074,TENNIS CLUB DE BOLLENE,BOLLENE,6,0,0,44.29225,4.758191
60300689,TENNIS CLUB DE CASTILLON,CASTILLON DU GARD,2,0,0,43.963284,4.553752
60300682,TENNIS CLUB DE GALLARGUES,GALLARGUES LE MONTUEUX,2,0,0,43.721684,4.173218
60300373,TENNIS CLUB DE GARONS,GARONS,4,0,0,43.775936,4.43008
62130586,TENNIS CLUB DE LA BARBEN,LA BARBEN,2,0,0,43.630207,5.175757
62840203,TENNIS CLUB DE MONDRAGON,MONDRAGON,4,0,0,44.241364,4.719693
60300680,TENNIS CLUB DE MOUSSAC,MOUSSAC,3,0,0,43.980267,4.229984
60340414,TENNIS CLUB DE PEROLS,LATTES,8,0,0,43.559334,3.935923
62130462,TENNIS CLUB DE ST ETIENNE DU GRES,ST ETIENNE DU GRES,5,0,0,43.783855,4.736425
62130577,TENNIS CLUB DE TRINQUETAILLE,ARLES,8,0,0,43.684982,4.609788
50260619,TENNIS CLUB DES BARONNIES,BUIS LES BARONNIES,2,0,0,44.270477,5.269593
62840546,TENNIS CLUB DU BARROUX,LE BARROUX,2,0,0,44.150024,5.088983
62840567,TENNIS CLUB DU BREGOUX,AUBIGNAN,2,0,0,44.09865,5.04308
62130596,TENNIS CLUB DU PARADOU,LE PARADOU,2,0,0,43.720573,4.78698
62130242,TENNIS CLUB ENTRESSEN ISTRES,ENTRESSEN,4,0,0,43.591305,4.935356
62130607,TENNIS CLUB EYGALIERES,EYGALIERES,2,0,0,43.76154,4.944526
62130232,TENNIS CLUB FONTVIEILLE,FONTVIEILLE,4,0,0,43.720882,4.701986
62130145,TENNIS CLUB FOS-SUR-MER,FOS SUR MER,8,0,0,43.44033,4.946944
62840550,TENNIS CLUB GARGAS,GARGAS,2,0,1,43.90322,5.357388
62840354,TENNIS CLUB JONQUERETTES,JONQUERETTES,2,0,0,43.948856,4.9361
62130192,TENNIS CLUB LA FARE,LA FARE-LES-OLIVIERS,5,0,0,43.556587,5.19323
62130184,TENNIS CLUB LAMANON,LAMANON,2,0,0,43.701366,5.084911
62130149,TENNIS CLUB LAMBESCAIN,LAMBESC,7,0,0,43.64828,5.267498
62130241,TENNIS CLUB LANCON PROVENCE,LANCON PROVENCE,6,0,0,43.591633,5.122729
62840273,TENNIS CLUB LAURIS,LAURIS,3,0,0,43.74833,5.32049
60340719,TENNIS CLUB LE PALOU,LATTES,4,0,0,43.57853,3.897032
62840282,TENNIS CLUB LOURMARIN,LOURMARIN,4,0,1,43.763477,5.362582
62840284,TENNIS CLUB MALAUCENE,MALAUCENE,2,0,0,44.176964,5.132563
60300313,TENNIS CLUB MARGUERITTES,MARGUERITTES,6,0,0,43.86271,4.44198
62130167,TENNIS CLUB MARTIGUES,MARTIGUES,10,2,0,43.429665,5.050938
62840432,TENNIS CLUB MERINDOL,MERINDOL,2,0,0,43.75327,5.205538
62130051,TENNIS CLUB MIRAMAS,MIRAMAS,9,0,0,43.595478,5.001742
62830447,TENNIS CLUB MONTFORTAIS,MONTFORT SUR ARGENS,2,0,0,43.473312,6.127325
62130322,TENNIS CLUB MOURIESEN,MOURIES,3,0,0,43.69389,4.875273
62840497,TENNIS CLUB OPPEDE MENERBES,OPPEDE,4,0,0,43.844936,5.168695
62840250,TENNIS CLUB PERNES,PERNES LES FONTAINES,7,0,0,43.99847,5.067573
62840072,TENNIS CLUB PERTUIS,PERTUIS,8,0,1,43.694275,5.501843
62130191,TENNIS CLUB PEYROLLAIS,PEYROLLES-EN-PROVENCE,4,0,0,43.64297,5.572122
62130120,TENNIS CLUB PIJORET,LA ROQUE D'ANTHERON,6,0,0,43.71531,5.307009
62130054,TENNIS CLUB PORT-DE-BOUC,PORT-DE-BOUC,6,0,0,43.419277,4.992602
62130568,TENNIS CLUB PUYRICARD,PUYRICARD,4,0,0,43.588303,5.417282
62130469,TENNIS CLUB ROGNES,ROGNES,6,0,0,43.654182,5.325953
62130225,TENNIS CLUB SAINT ANDIOL,ST-ANDIOL,2,0,0,43.835464,4.944566
62130288,TENNIS CLUB SAINT MITRE LES REMPARTS,ST-MITRE-LES-REMPARTS,3,0,0,43.453537,5.020641
62130222,TENNIS CLUB SAINT-CANNAT,ST-CANNAT,5,0,0,43.62035,5.295476
62840317,TENNIS CLUB SARRIANS,SARRIANS,3,0,0,44.079815,4.976696
60300688,TENNIS CLUB SAZE,SAZE,2,0,0,43.945866,4.680009
62830457,TENNIS CLUB SEILLONNAIS,SEILLONS SOURCE D'ARGENS,2,0,0,43.49867,5.881698
62840068,TENNIS CLUB SORGUAIS,SORGUES,8,0,0,44.001625,4.906319
62840557,TENNIS CLUB ST BRUNO,PUJAUT,10,0,0,43.985794,4.773506
60300596,TENNIS CLUB ST CHAPTES,SAINT CHAPTES,2,0,0,43.972454,4.273951
62840199,TENNIS CLUB ST-DIDIER,ST DIDIER,2,0,0,44.00911,5.109394
62130168,TENNIS CLUB ST-REMY DE PROVENCE,ST REMY DE PROVENCE,6,0,0,43.79116,4.836776
62840524,TENNIS CLUB SUD LUBERON,MIRABEAU,2,0,0,43.706497,5.657285
62130037,TENNIS CLUB TARASCON,TARASCON,8,2,0,43.80996,4.673903
62840437,TENNIS CLUB TOURAIN,LA TOUR-D'AIGUES,5,0,0,43.728622,5.552042
62840073,TENNIS CLUB VAISON,VAISON-LA-ROMAINE,6,0,0,44.24407,5.073993
60300704,TENNIS CLUB VAL DE CEZE,ST ANDRE DE ROQUEPERTUIS,4,0,0,44.24759,4.44656
60300692,TENNIS CLUB VESTRICOIS,VESTRIC ET CANDIAC,2,0,0,43.74142,4.26108
62840581,TENNIS CLUB VILLEDIEU,VILLEDIEU,2,0,0,44.288593,5.036455
62840258,TENNIS CLUB VILLELAURIEN,VILLELAURE,2,0,0,43.710793,5.436364
62840155,TENNIS CLUB de CAMPBEAU,CHATEAUNEUF-DE-GADAGNE,6,0,0,43.93395,4.937262
62830288,TENNIS DE BARJOLS,BARJOLS,3,0,0,43.561474,6.004947
62830069,TENNIS DE BEAUVALLON,GRIMAUD,5,1,0,43.29148,6.601365
62130494,TENNIS GRAVESON,GRAVESON,5,0,0,43.855106,4.762245
62060411,TENNIS LOISIRS LEVENS,LEVENS,4,0,0,43.862198,7.227691
60340678,TENNIS LOISIRS MUDAISON,MUDAISON,2,0,0,43.642033,4.040945
60340729,TENNIS PADEL CLUB PALAVAS,PALAVAS LES FLOTS,8,8,0,43.532177,3.930054
60340023,TENNIS PADEL MAUGUIO,MAUGUIO,9,5,0,43.61184,4.012602
62130049,TENNIS PARC ARLESIEN,ARLES,10,0,0,43.670876,4.631449
62840570,TENNIS PARC SALTESIEN,SAULT,3,0,0,44.10248,5.424911
62840577,TENNIS PARK AVIGNON,AVIGNON,6,0,0,43.93032,4.845511
60340604,TENNIS SAINT BRES,SAINT BRES,4,0,0,43.671837,4.033133
62830152,TENNIS-PADEL De LORGUES,LORGUES,4,2,0,43.49509,6.367272
62060319,TM DRAP,DRAP,4,0,0,43.75424,7.337248
62830115,TM OLLIOULAIS,OLLIOULES,9,1,0,43.12383,5.831264
62830337,TO POURRIERES,POURRIERES,4,0,0,43.501125,5.739466
62830289,TRANS TC,TRANS EN PROVENCE,3,0,0,43.50638,6.48334
62130559,TRETS TENNIS CLUB,TRETS,10,2,0,43.445164,5.700552
62830429,TS FLAYOSCAIS,DRAGUIGNAN,4,0,0,43.540264,6.407142
62840065,U.S. PONTET TENNIS,LE PONTET,14,0,0,43.95867,4.855891
62840324,UCHAUX TENNIS CLUB,UCHAUX,2,0,0,44.20899,4.799808
62840355,US SMASH CLUB ENTRAIGUES,ENTRAIGUES,4,0,0,44.000423,4.912244
62040079,US STE TULLE TENNIS,STE TULLE,5,0,0,43.78605,5.765478
62040277,USB SEYNE TENNIS,SELONNET,2,0,0,44.350285,6.354495
50260517,VALAURIE TENNIS CLUB,VALAURIE,3,0,0,44.42888,4.821288
62840313,VEDENE TENNIS CLUB,VEDENE,4,0,0,43.978138,4.909164
62060197,VILLEFRANCHE TENNIS CLUB,VILLEFRANCHE SUR MER,7,0,0,43.702354,7.324217
